[
  {
    "id": 1,
    "name": "Ресторан 'Пример'",
    "discount": "15%",
    "address": "ул. Ленина, 1, Минск",
    "phone": "+375 29 123-45-67",
    "phone2": "+375 29 123-45-67",
    "geo": [52.1, 23.7],
    "type": "restaurant",
    "img": "catalog1.webp"
  },
  {
    "id": 2,
    "name": "Кафе 'Тест'",
    "discount": "10%",
    "address": "пр. Независимости, 50, Минск",
    "phone": "+375 29 987-65-43",
    "phone2": "+375 29 123-45-67",
    "geo": [53.7, 25.3],
    "type": "cafe",
    "img": "catalog2.avif"
  },
  {
    "id": 3,
    "name": "Магазин 'Продукты'",
    "discount": "5%",
    "phone2": "+375 29 123-45-67",
    "address": "ул. Советская, 10, Минск",
    "phone": "+375 29 111-22-33",
    "geo": [55.1, 26.7],
    "type": "shop",
    "img": "catalog3.avif"
  },
  {
    "id": 4,
    "name": "Бар 'Веселый'",
    "discount": "20%",
    "address": "ул. Победы, 5, Минск",
    "phone2": "+375 29 123-45-67",
    "phone": "+375 29 222-33-44",
    "geo": [51.3, 29.2],
    "type": "bar",
    "img": "catalog4.webp"
  },
  {
    "id": 5,
    "name": "Барбершоп 'Стиль'",
    "discount": "25%",
    "address": "ул. Октябрьская, 15, Минск",
    "phone2": "+375 29 123-45-67",
    "phone": "+375 29 333-44-55",
    "geo": [54.0, 30.1],
    "type": "barbershop",
    "img": "catalog5.png"
  },
  {
    "id": 6,
    "name": "Спортзал 'Сила'",
    "discount": "30%",
    "address": "ул. Спортивная, 20, Минск",
    "phone": "+375 29 444-55-66",
    "phone2": "+375 29 123-45-67",
    "geo": [52.8, 24.6],
    "type": "gym",
    "img": "catalog6.png"
  },
  {
    "id": 7,
    "name": "Отель 'Комфорт'",
    "discount": "35%",
    "address": "ул. Центральная, 25, Минск",
    "phone": "+375 29 555-66-77",
    "phone2": "+375 29 123-45-67",
    "geo": [51.9, 27.4],
    "type": "hotel",
    "img": "catalog7.png"
  },
  {
    "id": 8,
    "name": "Ресторан 'Гурман'",
    "discount": "40%",
    "address": "ул. Ленина, 2, Минск",
    "phone": "+375 29 666-77-88",
    "phone2": "+375 29 123-45-67",
    "geo": [55.2, 28.3],
    "type": "restaurant",
    "img": "catalog8.png"
  },
  {
    "id": 9,
    "name": "Кафе 'Уют'",
    "discount": "45%",
    "address": "пр. Независимости, 51, Минск",
    "phone": "+375 29 777-88-99",
    "phone2": "+375 29 123-45-67",
    "geo": [53.3, 29.8],
    "type": "cafe",
    "img": "catalog9.jpg"
  },
  {
    "id": 10,
    "name": "Магазин 'Одежда'",
    "phone2": "+375 29 123-45-67",
    "discount": "50%",
    "address": "ул. Советская, 11, Минск",
    "phone": "+375 29 888-99-00",
    "geo": [54.6, 22.9],
    "type": "shop",
    "img": "catalog10.png"
  },
  {
    "id": 11,
    "name": "Бар 'Ночной'",
    "discount": "55%",
    "address": "ул. Победы, 6, Минск",
    "phone": "+375 29 999-00-11",
    "phone2": "+375 29 123-45-67",
    "geo": [53.9, 27.5667],
    "type": "bar",
    "img": "catalog11.jpg"
  },
  {
    "id": 12,
    "name": "Барбершоп 'Мужской'",
    "discount": "60%",
    "address": "ул. Октябрьская, 16, Минск",
    "phone": "+375 29 000-11-22",
    "phone2": "+375 29 123-45-67",
    "geo": [53.91, 27.57],
    "type": "barbershop",
    "img": "catalog12.png"
  },
  {
    "id": 13,
    "name": "Спортзал 'Фитнес'",
    "discount": "65%",
    "address": "ул. Спортивная, 21, Минск",
    "phone": "+375 29 111-22-33",
    "phone2": "+375 29 123-45-67",
    "geo": [53.81, 27.57],
    "type": "gym",
    "img": "catalog13.avif"
  },
  {
    "id": 14,
    "name": "Отель 'Люкс'",
    "discount": "70%",
    "address": "ул. Центральная, 26, Минск",
    "phone": "+375 29 222-33-44",
    "phone2": "+375 29 123-45-67",
    "geo": [53.87735444597956, 27.51732246066304],
    "type": "hotel",
    "img": "catalog1.webp"
  },
  {
    "id": 15,
    "name": "Ресторан 'Деликатес'",
    "discount": "75%",
    "address": "ул. Ленина, 3, Минск",
    "phone": "+375 29 333-44-55",
    "phone2": "+375 29 123-45-67",
    "geo": [53.893745157558676, 27.529338756752807],
    "type": "restaurant",
    "img": "catalog2.avif"
  },
  {
    "id": 16,
    "name": "Кафе 'Вкусно'",
    "discount": "80%",
    "address": "пр. Независимости, 52, Минск",
    "phone": "+375 29 444-55-66",
    "phone2": "+375 29 123-45-67",
    "geo": [53.91548833904237, 27.481960217884577],
    "type": "cafe",
    "img": "catalog3.avif"
  },
  {
    "id": 17,
    "name": "Магазин 'Электроника'",
    "discount": "85%",
    "address": "ул. Советская, 12, Минск",
    "phone": "+375 29 555-66-77",
    "phone2": "+375 29 123-45-67",
    "geo": [53.919633428385964, 27.60469809937292],
    "type": "shop",
    "img": "catalog4.webp"
  },
  {
    "id": 18,
    "name": "Бар 'Пивной'",
    "discount": "90%",
    "address": "ул. Победы, 7, Минск",
    "phone": "+375 29 666-77-88",
    "phone2": "+375 29 123-45-67",
    "geo": [53.908211713727695, 27.486412282734022],
    "type": "bar",
    "img": "catalog5.png"
  },
  {
    "id": 19,
    "name": "Барбершоп 'Классика'",
    "discount": "95%",
    "address": "ул. Октябрьская, 17, Минск",
    "phone": "+375 29 777-88-99",
    "phone2": "+375 29 123-45-67",
    "geo": [53.900738895634966, 27.49359358233888],
    "type": "barbershop",
    "img": "catalog6.png"
  },
  {
    "id": 20,
    "name": "Спортзал 'Атлет'",
    "discount": "100%",
    "address": "ул. Спортивная, 22, Минск",
    "phone": "+375 29 888-99-00",
    "phone2": "+375 29 123-45-67",
    "geo": [53.92960894034502, 27.5878099339811],
    "type": "gym",
    "img": "catalog7.png"
  }
]
